[
    {
        "id": 448425,
        "categoryId": 1,
        "title": "Visages",
        "description": "",
        "latitude": 0.77685762878752,
        "longitude": -0.71947094599682
    },
    {
        "id": 448426,
        "categoryId": 1,
        "title": "Sirene",
        "description": "",
        "latitude": 0.79100322581681,
        "longitude": -0.6545962822662
    },
    {
        "id": 448427,
        "categoryId": 1,
        "title": "Monoco's Station - South Entrance",
        "description": "",
        "latitude": 0.66231458481748,
        "longitude": -0.69661566572927
    },
    {
        "id": 448428,
        "categoryId": 1,
        "title": "Monoco's Station - Northeast Entrance",
        "description": "",
        "latitude": 0.67157489410683,
        "longitude": -0.69396405575461
    },
    {
        "id": 448429,
        "categoryId": 1,
        "title": "Monoco's Station - Northwest Entrance",
        "description": "",
        "latitude": 0.67078154054545,
        "longitude": -0.70300689680224
    },
    {
        "id": 448430,
        "categoryId": 1,
        "title": "Old Lumiere - South Entrance",
        "description": "",
        "latitude": 0.69510380895274,
        "longitude": -0.71710966043381
    },
    {
        "id": 448431,
        "categoryId": 1,
        "title": "Old Lumiere - North Entrance",
        "description": "",
        "latitude": 0.71455498287342,
        "longitude": -0.71620459359909
    },
    {
        "id": 448432,
        "categoryId": 1,
        "title": "Forgotten Battlefield - South Entrance",
        "description": "",
        "latitude": 0.61182007580797,
        "longitude": -0.67782887617867
    },
    {
        "id": 448433,
        "categoryId": 1,
        "title": "Forgotten Battlefield - North Entrance",
        "description": "",
        "latitude": 0.62494420450369,
        "longitude": -0.67247655794077
    },
    {
        "id": 448434,
        "categoryId": 1,
        "title": "Stone Wave Cliffs - South Entrance",
        "description": "",
        "latitude": 0.52386969552829,
        "longitude": -0.67406594753245
    },
    {
        "id": 448435,
        "categoryId": 1,
        "title": "Esquie's Nest",
        "description": "",
        "latitude": 0.50506138579171,
        "longitude": -0.67386960492712
    },
    {
        "id": 448436,
        "categoryId": 1,
        "title": "Spring Meadows",
        "description": "",
        "latitude": 0.48047802141605,
        "longitude": -0.6930365532836
    },
    {
        "id": 448437,
        "categoryId": 1,
        "title": "Abbest Cave",
        "description": "",
        "latitude": 0.49140014806603,
        "longitude": -0.69421738385986
    },
    {
        "id": 448438,
        "categoryId": 1,
        "title": "Flying Waters - South Entrance",
        "description": "",
        "latitude": 0.49362898140858,
        "longitude": -0.68368300795615
    },
    {
        "id": 448439,
        "categoryId": 1,
        "title": "Gestral Village",
        "description": "",
        "latitude": 0.5083824212097,
        "longitude": -0.6866045137495
    },
    {
        "id": 448440,
        "categoryId": 1,
        "title": "Ancient Sanctuary - South Entrance",
        "description": "",
        "latitude": 0.50099263152978,
        "longitude": -0.6862531319444
    },
    {
        "id": 448441,
        "categoryId": 1,
        "title": "Lumiere",
        "description": "",
        "latitude": 0.42681731402173,
        "longitude": -0.65964773297341
    },
    {
        "id": 448442,
        "categoryId": 1,
        "title": "Gestral Beach",
        "description": "",
        "latitude": 0.78547202418004,
        "longitude": -0.57972141695976
    },
    {
        "id": 448443,
        "categoryId": 1,
        "title": "Sinister Cave",
        "description": "",
        "latitude": 0.7820056265701,
        "longitude": -0.52159319529528
    },
    {
        "id": 448447,
        "categoryId": 1,
        "title": "Isle of the Eyes",
        "description": "Flying required, Chromatic Boucheclier.",
        "latitude": 0.81002499305069,
        "longitude": -0.73598253829405
    },
    {
        "id": 448451,
        "categoryId": 1,
        "title": "The Crows",
        "description": "",
        "latitude": 0.77556171648911,
        "longitude": -0.77765263305957
    },
    {
        "id": 448452,
        "categoryId": 1,
        "title": "The Reacher (Lvl 56+)",
        "description": "To enter this area you need the quest that you receive at relationship level 6 with Maelle.",
        "latitude": 0.78892133940502,
        "longitude": -0.77723258173802
    },
    {
        "id": 448459,
        "categoryId": 1,
        "title": "Esoteric Ruins",
        "description": "",
        "latitude": 0.69803949218739,
        "longitude": -0.72993702986759
    },
    {
        "id": 448464,
        "categoryId": 1,
        "title": "Sunless Cliffs",
        "description": "",
        "latitude": 0.74637093685347,
        "longitude": -0.62557371853603
    },
    {
        "id": 448465,
        "categoryId": 1,
        "title": "Gestral Beach",
        "description": "",
        "latitude": 0.73255569578345,
        "longitude": -0.58740377425971
    },
    {
        "id": 448466,
        "categoryId": 1,
        "title": "The Chosen Path",
        "description": "Requires flight",
        "latitude": 0.70449874054044,
        "longitude": -0.66877654440401
    },
    {
        "id": 448471,
        "categoryId": 1,
        "title": "Boat Graveyard",
        "description": "",
        "latitude": 0.60880242516464,
        "longitude": -0.64229428743218
    },
    {
        "id": 448474,
        "categoryId": 1,
        "title": "Coastal Cave",
        "description": "",
        "latitude": 0.64445662302917,
        "longitude": -0.63056925488377
    },
    {
        "id": 448478,
        "categoryId": 1,
        "title": "Stone Quarry",
        "description": "",
        "latitude": 0.63338300828887,
        "longitude": -0.66470788704683
    },
    {
        "id": 448485,
        "categoryId": 1,
        "title": "Painting Workshop",
        "description": "",
        "latitude": 0.63993965593293,
        "longitude": -0.69139967144338
    },
    {
        "id": 448495,
        "categoryId": 1,
        "title": "The Carousel",
        "description": "",
        "latitude": 0.68848524457192,
        "longitude": -0.67645457554951
    },
    {
        "id": 448496,
        "categoryId": 1,
        "title": "Frozen Hearts (Lvl 67+)",
        "description": "",
        "latitude": 0.6822009884888,
        "longitude": -0.65392037547556
    },
    {
        "id": 448502,
        "categoryId": 1,
        "title": "Gestral Beach",
        "description": "",
        "latitude": 0.65811378982374,
        "longitude": -0.72442710399599
    },
    {
        "id": 448515,
        "categoryId": 1,
        "title": "Sacred River",
        "description": "",
        "latitude": 0.69083784701496,
        "longitude": -0.69240382194479
    },
    {
        "id": 448522,
        "categoryId": 1,
        "title": "Floating Cemetery",
        "description": "",
        "latitude": 0.64213077438552,
        "longitude": -0.75303326256821
    },
    {
        "id": 448523,
        "categoryId": 1,
        "title": "Falling Leaves",
        "description": "",
        "latitude": 0.62511624995142,
        "longitude": -0.73905743926653
    },
    {
        "id": 448525,
        "categoryId": 1,
        "title": "The Manor",
        "description": "",
        "latitude": 0.56892185854996,
        "longitude": -0.69795332138781
    },
    {
        "id": 448527,
        "categoryId": 1,
        "title": "Crimson Forest",
        "description": "",
        "latitude": 0.56686456274521,
        "longitude": -0.72419937272878
    },
    {
        "id": 448528,
        "categoryId": 1,
        "title": "Endless Tower",
        "description": "",
        "latitude": 0.54788815858086,
        "longitude": -0.72714084933972
    },
    {
        "id": 448529,
        "categoryId": 1,
        "title": "Blades' Graveyard",
        "description": "",
        "latitude": 0.58896484515189,
        "longitude": -0.69960146603185
    },
    {
        "id": 448532,
        "categoryId": 1,
        "title": "Painting Workshop",
        "description": "",
        "latitude": 0.5672135684525,
        "longitude": -0.65963029861408
    },
    {
        "id": 448535,
        "categoryId": 1,
        "title": "Gestral Beach",
        "description": "",
        "latitude": 0.56941287165054,
        "longitude": -0.63097357749848
    },
    {
        "id": 448537,
        "categoryId": 1,
        "title": "Flying Casino",
        "description": "",
        "latitude": 0.55870601214276,
        "longitude": -0.64185261726422
    },
    {
        "id": 448538,
        "categoryId": 1,
        "title": "Sky Island",
        "description": "",
        "latitude": 0.64010414593972,
        "longitude": -0.61033805749761
    },
    {
        "id": 448539,
        "categoryId": 1,
        "title": "White Sand",
        "description": "",
        "latitude": 0.61361667140933,
        "longitude": -0.57614732682936
    },
    {
        "id": 448558,
        "categoryId": 1,
        "title": "Twilight Quarry",
        "description": "",
        "latitude": 0.49447755967174,
        "longitude": -0.67502034993004
    },
    {
        "id": 448573,
        "categoryId": 1,
        "title": "Ancient Sanctuary - North Entrance",
        "description": "",
        "latitude": 0.50447772052024,
        "longitude": -0.68647645131026
    },
    {
        "id": 448574,
        "categoryId": 1,
        "title": "The Small Bourgeon",
        "description": "",
        "latitude": 0.49609949421422,
        "longitude": -0.69288632721026
    },
    {
        "id": 448579,
        "categoryId": 1,
        "title": "Red Woods",
        "description": "",
        "latitude": 0.49785710116113,
        "longitude": -0.70499302458555
    },
    {
        "id": 448580,
        "categoryId": 1,
        "title": "Hidden Gestral Arena",
        "description": "",
        "latitude": 0.50585404475386,
        "longitude": -0.69545496441216
    },
    {
        "id": 448581,
        "categoryId": 1,
        "title": "Gestral Beach",
        "description": "",
        "latitude": 0.50978178306156,
        "longitude": -0.70564054161596
    },
    {
        "id": 448582,
        "categoryId": 1,
        "title": "Yellow Harvest",
        "description": "",
        "latitude": 0.51847936165379,
        "longitude": -0.69770558662091
    },
    {
        "id": 448587,
        "categoryId": 1,
        "title": "Stone Wave Cliffs - North Entrance",
        "description": "",
        "latitude": 0.52986217637927,
        "longitude": -0.67472070713941
    },
    {
        "id": 448589,
        "categoryId": 1,
        "title": "Crushing Cavern",
        "description": "",
        "latitude": 0.5322645482803,
        "longitude": -0.70119420893602
    },
    {
        "id": 448590,
        "categoryId": 1,
        "title": "Lost Woods",
        "description": "",
        "latitude": 0.5230192321935,
        "longitude": -0.70271963936364
    },
    {
        "id": 448592,
        "categoryId": 1,
        "title": "White Tree",
        "description": "",
        "latitude": 0.52399935078327,
        "longitude": -0.71830776179416
    },
    {
        "id": 448596,
        "categoryId": 1,
        "title": "The Fountain",
        "description": "",
        "latitude": 0.48963022751879,
        "longitude": -0.72637672529427
    },
    {
        "id": 448597,
        "categoryId": 1,
        "title": "Stone Wave Cliffs Cave",
        "description": "",
        "latitude": 0.52491374767257,
        "longitude": -0.6364552623653
    },
    {
        "id": 448599,
        "categoryId": 1,
        "title": "Ancient Gestral City",
        "description": "",
        "latitude": 0.48552095956101,
        "longitude": -0.67745089530976
    },
    {
        "id": 448604,
        "categoryId": 1,
        "title": "Flying Waters - North Entrance",
        "description": "",
        "latitude": 0.49732174081551,
        "longitude": -0.68313071686086
    },
    {
        "id": 448608,
        "categoryId": 1,
        "title": "The Meadows",
        "description": "",
        "latitude": 0.49210696144165,
        "longitude": -0.65976977348282
    },
    {
        "id": 448613,
        "categoryId": 1,
        "title": "Dark Shores",
        "description": "",
        "latitude": 0.46269858662683,
        "longitude": -0.7008961551702
    },
    {
        "id": 449887,
        "categoryId": 1,
        "title": "Renoir's Drafts",
        "description": "Access requires Esquie's diving ability",
        "latitude": 0.76299105198628,
        "longitude": -0.69504515090674
    },
    {
        "id": 452080,
        "categoryId": 1,
        "title": "Sirene's Dress (Lvl 60+)",
        "description": "To enter this area you need the quest that you receive at relationship level 6 with Luna.",
        "latitude": 0.8018918753056,
        "longitude": -0.6154557497064
    },
    {
        "id": 452779,
        "categoryId": 1,
        "title": "Endless Night Sanctuary",
        "description": "",
        "latitude": 0.71470450223435,
        "longitude": -0.5362931067655
    },
    {
        "id": 452782,
        "categoryId": 1,
        "title": "The Canvas",
        "description": "",
        "latitude": 0.84182020819253,
        "longitude": -0.71191839291626
    },
    {
        "id": 452794,
        "categoryId": 1,
        "title": "Painting Workshop",
        "description": "",
        "latitude": 0.80675048329277,
        "longitude": -0.57661432453446
    },
    {
        "id": 452855,
        "categoryId": 1,
        "title": "Flying Manor",
        "description": "",
        "latitude": 0.64017230425559,
        "longitude": -0.70578575134397
    },
    {
        "id": 452866,
        "categoryId": 1,
        "title": "Dark Gestral Arena",
        "description": "**Location:** On the floating island (Esquie flight required)",
        "latitude": 0.51144740414554,
        "longitude": -0.70204774800649
    },
    {
        "id": 452886,
        "categoryId": 1,
        "title": "The Manor",
        "description": "",
        "latitude": 0.49011714673908,
        "longitude": -0.60628078621261
    },
    {
        "id": 452890,
        "categoryId": 1,
        "title": "Inside of Monolith",
        "description": "",
        "latitude": 0.90268223643931,
        "longitude": -0.67102822311009
    },
    {
        "id": 452892,
        "categoryId": 1,
        "title": "The Monolith",
        "description": "",
        "latitude": 0.897288299576,
        "longitude": -0.67576378584039
    },
    {
        "id": 448516,
        "categoryId": 2,
        "title": "Underwater Treasure",
        "description": "**Rewards:**\n- Colour of Lumina x5",
        "latitude": 0.65314416933313,
        "longitude": -0.76587813069457
    },
    {
        "id": 448540,
        "categoryId": 2,
        "title": "Underwater Treasure",
        "description": "**Rewards:**\n- Colour of Lumina x5",
        "latitude": 0.6483404553976,
        "longitude": -0.5604529380787
    },
    {
        "id": 448547,
        "categoryId": 2,
        "title": "Underwater Treasure",
        "description": "**Rewards:**\n- Colour of Lumina x5",
        "latitude": 0.53564006663836,
        "longitude": -0.73254346847381
    },
    {
        "id": 448614,
        "categoryId": 2,
        "title": "Underwater Treasure",
        "description": "**Rewards:**\n- Colour of Lumina x5",
        "latitude": 0.47445488911445,
        "longitude": -0.64860114209677
    },
    {
        "id": 449877,
        "categoryId": 2,
        "title": "Underwater Treasure",
        "description": "**Rewards:**\n- Colour of Lumina x5",
        "latitude": 0.76349956007554,
        "longitude": -0.51266461492176
    },
    {
        "id": 449888,
        "categoryId": 2,
        "title": "Underwater Treasure",
        "description": "**Rewards:**\n- Colour of Lumina x5",
        "latitude": 0.82708946750614,
        "longitude": -0.64027515434745
    },
    {
        "id": 452806,
        "categoryId": 2,
        "title": "Underwater Treasure",
        "description": "**Rewards:**\n- Colour of Lumina x5",
        "latitude": 0.71221820914739,
        "longitude": -0.57949569123923
    },
    {
        "id": 452827,
        "categoryId": 2,
        "title": "Underwater Treasure",
        "description": "**Rewards:**\n- Colour of Lumina x5",
        "latitude": 0.76810583523925,
        "longitude": -0.75488082533496
    },
    {
        "id": 452832,
        "categoryId": 2,
        "title": "Underwater Treasure",
        "description": "**Rewards:**\n- Colour of Lumina x5",
        "latitude": 0.70260527634102,
        "longitude": -0.66927600046944
    },
    {
        "id": 452858,
        "categoryId": 2,
        "title": "Underwater Treasure",
        "description": "**Rewards:**\n- Colour of Lumina x5",
        "latitude": 0.61346312443447,
        "longitude": -0.61589956283493
    },
    {
        "id": 452887,
        "categoryId": 2,
        "title": "Underwater Treasure",
        "description": "**Rewards:**\n- Colour of Lumina x5",
        "latitude": 0.4846586602682,
        "longitude": -0.58748960494844
    },
    {
        "id": 454568,
        "categoryId": 2,
        "title": "Underwater Treasure",
        "description": "**Rewards:**\n- Colour of Lumina x5",
        "latitude": 0.43525029108807,
        "longitude": -0.61460452092928
    },
    {
        "id": 448490,
        "categoryId": 3,
        "title": "Bridge",
        "description": "**Location:** Activate the button to create a bridge that connects north to south.  Only accessible after passing through [Monoco's Station - Northeast Entrance](/?locationId=448428)",
        "latitude": 0.66937023574442,
        "longitude": -0.68335314105315
    },
    {
        "id": 448505,
        "categoryId": 3,
        "title": "Bridge",
        "description": "**Location:** Activate the button to create a bridge that connects west to east.  Only accessible after passing through [Monoco's Station - Northwest Entrance](/?locationId=448429)",
        "latitude": 0.65078685657571,
        "longitude": -0.70898528603357
    },
    {
        "id": 448572,
        "categoryId": 3,
        "title": "Gate",
        "description": "**Location:** Allows access of the [Gestral Village](/?locationId=448439) without going through the [Ancient Sanctuary](/?locationId=448440).  Can only be activated by progressing the story through the [Gestral Village](/?locationId=448439)",
        "latitude": 0.5064524039951,
        "longitude": -0.68284735645548
    },
    {
        "id": 448577,
        "categoryId": 3,
        "title": "Bridge",
        "description": "**Location:** Connects north with south.  Only accessible after passing through [Flying Waters](/?locationId=448438)",
        "latitude": 0.49824483927159,
        "longitude": -0.69152759223076
    },
    {
        "id": 448601,
        "categoryId": 3,
        "title": "Bridge",
        "description": "**Location:** Connects both sides of the chasm",
        "latitude": 0.48897686090847,
        "longitude": -0.68635582923838
    },
    {
        "id": 449764,
        "categoryId": 3,
        "title": "Bridge",
        "description": "Location: Activate the button to create a bridge that connects this area to the ground below.",
        "latitude": 0.52566692282933,
        "longitude": -0.69613784551706
    },
    {
        "id": 448445,
        "categoryId": 5,
        "title": "Expedition 40",
        "description": "**Location:** On the beach near the tents and merchant",
        "latitude": 0.85131863381774,
        "longitude": -0.68989744014982
    },
    {
        "id": 448510,
        "categoryId": 5,
        "title": "Expedition 47",
        "description": "**Location:** On the side of the road amongst the ruined camp",
        "latitude": 0.67418491293756,
        "longitude": -0.74371911659463
    },
    {
        "id": 448541,
        "categoryId": 5,
        "title": "Expedition 43",
        "description": "**Location:** On the ground in the ruined camp",
        "latitude": 0.65033609100942,
        "longitude": -0.59406253850725
    },
    {
        "id": 448584,
        "categoryId": 5,
        "title": "Expedition 62",
        "description": "**Location:** Behind the rocks, only accessible with Esquie",
        "latitude": 0.5201404504154,
        "longitude": -0.68798698108776
    },
    {
        "id": 448609,
        "categoryId": 5,
        "title": "Expedition 64",
        "description": "**Location:** In the ruined camp on the beach",
        "latitude": 0.48528895680862,
        "longitude": -0.66310375928936
    },
    {
        "id": 448801,
        "categoryId": 5,
        "title": "Expedition 81",
        "description": "**Location:** Automatically obtained within the [Spring Meadows](/?locationId=448436)",
        "latitude": 0.48150315352663,
        "longitude": -0.69239214062532
    },
    {
        "id": 448812,
        "categoryId": 5,
        "title": "Expedition 68",
        "description": "**Location:** Found within the [Flying Waters - South Entrance](/?locationId=448438)",
        "latitude": 0.49502455662079,
        "longitude": -0.68280570693338
    },
    {
        "id": 448814,
        "categoryId": 5,
        "title": "Expedition 63",
        "description": "**Location:** Found within the [Ancient Sanctuary - South Entrance](/?locationId=448440)",
        "latitude": 0.50274141752779,
        "longitude": -0.68721367211245
    },
    {
        "id": 448833,
        "categoryId": 5,
        "title": "Expedition 66",
        "description": "**Location:** Found within [Esquie's Nest](/?locationId=448435) - after convincing Esquie to join the party, head across the chasm and find this entry on the ledge near the ruined camp",
        "latitude": 0.50669073785313,
        "longitude": -0.67188995171853
    },
    {
        "id": 448834,
        "categoryId": 5,
        "title": "Expedition 78",
        "description": "**Location:** Found within the [Stone Wave Cliffs - South Entrance](/?locationId=448434) - climb the rope to the ledge above the Hexga to find this entry amongst dead Expeditioners",
        "latitude": 0.52397563835476,
        "longitude": -0.67601725459076
    },
    {
        "id": 448838,
        "categoryId": 5,
        "title": "Expedition 50",
        "description": "**Location:** Found within the [Stone Wave Cliffs - South Entrance](/?locationId=448434) - Past the Paintress Shrine rest point, in a large cave with floating lamps, at a cliff's edge overlooking the ocean below",
        "latitude": 0.52605426307325,
        "longitude": -0.67425101995408
    },
    {
        "id": 448843,
        "categoryId": 5,
        "title": "Expedition 57",
        "description": "**Location:** Found within the [Forgotten Battlefield - South Entrance](/?locationId=448432) - on a grassy hill near a corpse with a trumpet stuck on its head",
        "latitude": 0.62079988158895,
        "longitude": -0.67411959171508
    },
    {
        "id": 448850,
        "categoryId": 5,
        "title": "Expedition 65",
        "description": "**Location:** Found near [Monoco's Station - Northeast Entrance](/?locationId=448428), inside the station",
        "latitude": 0.67106729001223,
        "longitude": -0.69605865585035
    },
    {
        "id": 448852,
        "categoryId": 5,
        "title": "Survivor",
        "description": "**Location:** Found within [Old Lumiere - South Entrance](/?locationId=448430) - after your party is separated and you gain control of the party of 2, drop down onto the big pipe, and further down through the hole.  Use the [Old Key](/?locationId=448923) to open the locked gate and retrieve the entry",
        "latitude": 0.6975907845553,
        "longitude": -0.71361467188743
    },
    {
        "id": 449484,
        "categoryId": 5,
        "title": "Expedition 52",
        "description": "**Location:** Found within the [Gestral Village](/?locationId=448439) - on the straw mat near the corpse close to the Arena",
        "latitude": 0.51262824010924,
        "longitude": -0.6852947968961
    },
    {
        "id": 449700,
        "categoryId": 5,
        "title": "Expedition 56",
        "description": "**Location:** Found within the [Stone Wave Cliffs - South Entrance](/?locationId=448434) - At the second clearing. On the left side of the slope. In front of the street lamp with a sword stuck in it.",
        "latitude": 0.52445707472214,
        "longitude": -0.67704588174783
    },
    {
        "id": 449705,
        "categoryId": 5,
        "title": "Expedition 53",
        "description": "**Location:** Found within the [The Small Bourgeon](/?locationId=448574) - After passing Little Bourgeon",
        "latitude": 0.49630823467787,
        "longitude": -0.69404733703809
    },
    {
        "id": 449711,
        "categoryId": 5,
        "title": "Expedition 45",
        "description": "**Location:** Found within the [Crushing Cavern](/?locationId=448589) - You can reach it by following the path that opens behind the [Giant Sapling](/?locationId=449710) boss.",
        "latitude": 0.53234712461634,
        "longitude": -0.7038899707743
    },
    {
        "id": 449714,
        "categoryId": 5,
        "title": "Expedition 36",
        "description": "**Location:** Found within the [White Tree](/?locationId=448592)",
        "latitude": 0.52394322481871,
        "longitude": -0.71976569502991
    },
    {
        "id": 449720,
        "categoryId": 5,
        "title": "Expedition 54",
        "description": "**Location:** Found within the [Stone Wave Cliffs Cave](/?locationId=448597) - In the area where the boss is",
        "latitude": 0.5271877689113,
        "longitude": -0.63443163470251
    },
    {
        "id": 449729,
        "categoryId": 5,
        "title": "Expedition 41",
        "description": "**Location:** Found within the [Forgotten Battlefield](/?locationId=448432) - After passing through the big gate, you will encounter an NPC named Fading Woman. From where this NPC is, go to the right towards the wooden reinforced trenches.",
        "latitude": 0.61720031056471,
        "longitude": -0.67387519975836
    },
    {
        "id": 449734,
        "categoryId": 5,
        "title": "Expedition 48",
        "description": "**Location:** Found within the [Stone Quarry](/?locationId=448478)",
        "latitude": 0.63335857307132,
        "longitude": -0.66332253803114
    },
    {
        "id": 449753,
        "categoryId": 5,
        "title": "Unknown I",
        "description": "**Location:** Found within the [Visages](/?locationId=448425) - Path of Anger.  Inside The Manor",
        "latitude": 0.78213736162461,
        "longitude": -0.71883595143569
    },
    {
        "id": 449755,
        "categoryId": 5,
        "title": "Expedition 69",
        "description": "**Location:** Found within the [Visages](/?locationId=448425) - Path of Joy",
        "latitude": 0.77987986624011,
        "longitude": -0.7230559597898
    },
    {
        "id": 449760,
        "categoryId": 5,
        "title": "Expedition 39",
        "description": "**Location:** Found within the [Visages](/?locationId=448425) - Path of Sadness",
        "latitude": 0.78412415675977,
        "longitude": -0.72163045431154
    },
    {
        "id": 449885,
        "categoryId": 5,
        "title": "Expedition 34",
        "description": "**Location:** Found within the [The Crows](/?locationId=448451)",
        "latitude": 0.77473111269649,
        "longitude": -0.7801234118792
    },
    {
        "id": 449889,
        "categoryId": 5,
        "title": "Expedition 55",
        "description": "**Location:** Found within the [Sirene](/?locationId=448426)",
        "latitude": 0.79099572035403,
        "longitude": -0.65349695704762
    },
    {
        "id": 449906,
        "categoryId": 5,
        "title": "Expedition 67",
        "description": "**Location:** Found within the [Sirene](/?locationId=448426)",
        "latitude": 0.79585280599613,
        "longitude": -0.6506037594003
    },
    {
        "id": 450897,
        "categoryId": 5,
        "title": "Expedition 35",
        "description": "**Location:** Found within [Falling Leaves](/?locationId=448523)",
        "latitude": 0.62512237493269,
        "longitude": -0.74224853235003
    },
    {
        "id": 452795,
        "categoryId": 5,
        "title": "Expedition 46",
        "description": "**Location:** Found within [Sirene's Dress](/?locationId=452080)",
        "latitude": 0.80247797298927,
        "longitude": -0.62119142434551
    },
    {
        "id": 452805,
        "categoryId": 5,
        "title": "Expedition 37",
        "description": "**Location:** Found within [Gestral Beach](/?locationId=448465)",
        "latitude": 0.73314327622874,
        "longitude": -0.59018708157171
    },
    {
        "id": 452821,
        "categoryId": 5,
        "title": "Expedition 42",
        "description": "**Location:** Found within [Old Lumiere](/?locationId=448431) - From the Manor Gardens expedition flag, head to the upper left corner. Follow the path and take the rope down.",
        "latitude": 0.70041944611067,
        "longitude": -0.72128328456469
    },
    {
        "id": 452825,
        "categoryId": 5,
        "title": "Renoir",
        "description": "**Location:** Found within [Old Lumiere](/?locationId=448431) - Inside the Manor. It's in the garden next to where we fought with Renoir.",
        "latitude": 0.70828698038869,
        "longitude": -0.72133240066489
    },
    {
        "id": 452830,
        "categoryId": 5,
        "title": "Expedition 49",
        "description": "**Location:** Found within [Falling Leaves](/?locationId=448523) - After following the path through the door behind the young boy.",
        "latitude": 0.62376217632104,
        "longitude": -0.74095343746572
    },
    {
        "id": 452843,
        "categoryId": 5,
        "title": "Expedition 51",
        "description": "**Location:** Found within [Frozen Hearts](/?locationId=448496)",
        "latitude": 0.68016994907964,
        "longitude": -0.65096510701045
    },
    {
        "id": 452857,
        "categoryId": 5,
        "title": "Julie",
        "description": "**Location:** At the campsite",
        "latitude": 0.63137711019341,
        "longitude": -0.6848884637549
    },
    {
        "id": 452870,
        "categoryId": 5,
        "title": "Expedition 59",
        "description": "**Location:** Found within the [Yellow Harvest](/?locationId=448582) -  in the cave with Yellow Spire Wrecks flag - follow the left path",
        "latitude": 0.51946885891127,
        "longitude": -0.7015453407374
    },
    {
        "id": 452872,
        "categoryId": 5,
        "title": "Expedition 44",
        "description": "**Location:** Found within the [Yellow Harvest](/?locationId=448582) -  from the Expedition 68 rest point walk around the lake to the right and you'll find it near an enemy",
        "latitude": 0.5206727314314,
        "longitude": -0.69922638383071
    },
    {
        "id": 452874,
        "categoryId": 5,
        "title": "Expedition 38",
        "description": "**Location:** Found within the [Yellow Harvest](/?locationId=448582) - after the second flag go up the ramp to the right",
        "latitude": 0.51801610247897,
        "longitude": -0.70094829115854
    },
    {
        "id": 453326,
        "categoryId": 5,
        "title": "Verso",
        "description": "",
        "latitude": 0.63050831918673,
        "longitude": -0.68730227487882
    },
    {
        "id": 454437,
        "categoryId": 5,
        "title": "Expedition 70",
        "description": "**Location:** Found [Inside the Monolith](/?locationId=452890)",
        "latitude": 0.90652205165897,
        "longitude": -0.66960084309346
    },
    {
        "id": 454438,
        "categoryId": 5,
        "title": "Aline",
        "description": "**Location:** Found [Inside the Monolith](/?locationId=452890) - Inside the Manor.",
        "latitude": 0.90655079143305,
        "longitude": -0.67056530326855
    },
    {
        "id": 454585,
        "categoryId": 5,
        "title": "Expedition 84",
        "description": "**Location:** Found within [The Fountain](/?locationId=448596) - Next to a river, far right of [Blanche](/?locationId=457682)",
        "latitude": 0.49149958782128,
        "longitude": -0.72811270153497
    },
    {
        "id": 454675,
        "categoryId": 5,
        "title": "Expedition 61",
        "description": "**Location:** Found within [The Reacher](/?locationId=448452)",
        "latitude": 0.79350080579381,
        "longitude": -0.77666446566585
    },
    {
        "id": 454696,
        "categoryId": 5,
        "title": "Simon",
        "description": "**Location:** Found within [Renoir's Drafts](/?locationId=449887) - can be found in the arena after defeating the superboss [Simon](/?locationId=454695)",
        "latitude": 0.7634413822493,
        "longitude": -0.69304879916385
    },
    {
        "id": 455130,
        "categoryId": 5,
        "title": "Expedition 58",
        "description": "**Location:** Automatically added to your collection after completing the main story quest through [Old Lumiere](/?locationId=448431)",
        "latitude": 0.71101078096103,
        "longitude": -0.7186758620287
    },
    {
        "id": 456564,
        "categoryId": 5,
        "title": "Expedition 60",
        "description": "**Location:** Found within [Lumiere](/?locationId=448441) during Act III - Before the Opera House turn right towards the broken edge. Ask Esquie to pull the Journal out of the water",
        "latitude": 0.42829785217457,
        "longitude": -0.65723642706897
    },
    {
        "id": 456595,
        "categoryId": 5,
        "title": "Unknown II",
        "description": "**Location:** Found inside a room in The Manor - accessed via [The Reacher](/?locationId=448452)",
        "latitude": 0.79097993472955,
        "longitude": -0.78082313981389
    },
    {
        "id": 456596,
        "categoryId": 5,
        "title": "Unknown III",
        "description": "**Location:** Found within [The Manor](/?locationId=452886)",
        "latitude": 0.49188733968602,
        "longitude": -0.60623787086857
    },
    {
        "id": 448922,
        "categoryId": 4,
        "title": "Lumiere",
        "description": "**Location:** Obtained from defeating the [Mime](/?locationId=448921)\n\n**Alternative location:** Obtained in the Opera House in Act 3, behind the piano.",
        "latitude": 0.430967916181,
        "longitude": -0.65763607621176
    },
    {
        "id": 448930,
        "categoryId": 4,
        "title": "Nocturne Pour Un Masque De Tristesse",
        "description": "**Location:** Found within The Manor, accessed from within the [Flying Waters - South Entrance](/?locationId=448438) - after rescuing Maelle, head to the dining room upstairs and pull the four switches.  A secret passage will open to the left of the fireplace.  Find the record in a crate after traversing the passage.",
        "latitude": 0.49631316700599,
        "longitude": -0.68511938145269
    },
    {
        "id": 449706,
        "categoryId": 4,
        "title": "Lights of the Past",
        "description": "**Location:** Found within the [Ancient Gestral City](/?locationId=448599)",
        "latitude": 0.48514680482668,
        "longitude": -0.67828908562717
    },
    {
        "id": 449707,
        "categoryId": 4,
        "title": "Gustave",
        "description": "**Location:** Found within the [Stone Wave Cliffs - North Entrance](/?locationId=448587) - You'll find it when you return here after defeating the [Lampmaster](/?locationId=448839). Near the north entrance.",
        "latitude": 0.52765815625192,
        "longitude": -0.67327871918607
    },
    {
        "id": 449708,
        "categoryId": 4,
        "title": "Un 33 Décembre à Lumière",
        "description": "**Location:** Found within the [Twilight Quarry](/?locationId=448558)",
        "latitude": 0.4945689380895,
        "longitude": -0.67343991765668
    },
    {
        "id": 449709,
        "categoryId": 4,
        "title": "Our Painted Family",
        "description": "**Location:** Found within the [The Meadows](/?locationId=448608)",
        "latitude": 0.49216857264112,
        "longitude": -0.66108405590023
    },
    {
        "id": 449715,
        "categoryId": 4,
        "title": "Honeymoon in Lumière",
        "description": "**Location:** Found within the [White Tree](/?locationId=448592)",
        "latitude": 0.52388297667363,
        "longitude": -0.72090916197922
    },
    {
        "id": 449722,
        "categoryId": 4,
        "title": "Reverence",
        "description": "**Location:** Found within the [Blades' Graveyard](/?locationId=448529)",
        "latitude": 0.58905916182265,
        "longitude": -0.70060818308971
    },
    {
        "id": 449736,
        "categoryId": 4,
        "title": "Alicia's Birthday Party",
        "description": "**Location:** Found within the [Boat Graveyard](/?locationId=448471)",
        "latitude": 0.60973256295816,
        "longitude": -0.64080333739392
    },
    {
        "id": 449752,
        "categoryId": 4,
        "title": "Verso",
        "description": "**Location:** Found within the [Visages](/?locationId=448425) - Path of Anger. Inside the mansion",
        "latitude": 0.77990078545854,
        "longitude": -0.71559172841356
    },
    {
        "id": 449882,
        "categoryId": 4,
        "title": "Nocturne pour Lumière",
        "description": "**Location:** Found within the [Sinister Cave](/?locationId=448443) - Go up. Jump down from the small gap between the rock.",
        "latitude": 0.78314835451251,
        "longitude": -0.51692655173451
    },
    {
        "id": 450903,
        "categoryId": 4,
        "title": "Alicia",
        "description": "**Location:** Found within [Falling Leaves](/?locationId=448523) - Inside the Manor",
        "latitude": 0.62366791780569,
        "longitude": -0.74214704576093
    },
    {
        "id": 452826,
        "categoryId": 4,
        "title": "Renoir",
        "description": "**Location:** Found within [Old Lumiere](/?locationId=448431) - Inside the Manor. It's in the garden next to where we fought with Renoir.",
        "latitude": 0.70923973918865,
        "longitude": -0.71995655644142
    },
    {
        "id": 452829,
        "categoryId": 4,
        "title": "Until Next Life",
        "description": "**Location:** Found within [Falling Leaves](/?locationId=448523) - After defeating the [Scavenger](/?locationId=452828), go back and talk to Young Boy.",
        "latitude": 0.62378484357238,
        "longitude": -0.73993186468911
    },
    {
        "id": 452840,
        "categoryId": 4,
        "title": "Clea! Don't Pull Your Sister's Hair!",
        "description": "**Location:** Found within [Frozen Hearts](/?locationId=448496) - Inside the Manor.",
        "latitude": 0.67794940798326,
        "longitude": -0.65237902802821
    },
    {
        "id": 452851,
        "categoryId": 4,
        "title": "Aline",
        "description": "**Location:** Found within the [White Sands](/?locationId=448539)",
        "latitude": 0.61487205333687,
        "longitude": -0.57471150595117
    },
    {
        "id": 452865,
        "categoryId": 4,
        "title": "Reveries dans Paris",
        "description": "**Location:** Found within the [Flying Casino](/?locationId=448537) - Behind the casino building",
        "latitude": 0.55880832533408,
        "longitude": -0.64332064403095
    },
    {
        "id": 452867,
        "categoryId": 4,
        "title": "Aline's Glasshouse",
        "description": "**Location:** Found within the [Lost Woods](/?locationId=448590)",
        "latitude": 0.52334796779905,
        "longitude": -0.70508697443094
    },
    {
        "id": 452885,
        "categoryId": 4,
        "title": "Forlorn",
        "description": "**Location:** Found within the [The Manor](/?locationId=452886)",
        "latitude": 0.49165877607481,
        "longitude": -0.6046071203954
    },
    {
        "id": 453334,
        "categoryId": 4,
        "title": "Le Grand Café de Lumière",
        "description": "Walk to the left side as you approach the carousel, and you'll see an alleyway where you'll find the Record",
        "latitude": 0.69072625131707,
        "longitude": -0.67656187477925
    },
    {
        "id": 453335,
        "categoryId": 4,
        "title": "Children of Lumière",
        "description": "**Location:** Can be purchased from the merchant [Citrelo](/?locationId=452884)",
        "latitude": 0.69202525357879,
        "longitude": -0.68892647792396
    },
    {
        "id": 454439,
        "categoryId": 4,
        "title": "L'Amour d'une Mere",
        "description": "**Location:** Found [Inside the Monolith](/?locationId=452890)\r  - Inside the Manor.",
        "latitude": 0.90652736484373,
        "longitude": -0.67149907350526
    },
    {
        "id": 455142,
        "categoryId": 4,
        "title": "Lettre a Maelle",
        "description": "**Location:** May be obtained following a cutscene at Camp",
        "latitude": 0.78612855178048,
        "longitude": -0.71764082550322
    },
    {
        "id": 455276,
        "categoryId": 4,
        "title": "Endless Light",
        "description": "**Location:** Found within [Renoir's Drafts](/?locationId=449887) - from the entrance head to the left, up the grapple, then drop down the ledge to the right to find the record in the open mouth of a giant mask",
        "latitude": 0.76330138333989,
        "longitude": -0.69414628586745
    },
    {
        "id": 455414,
        "categoryId": 4,
        "title": "Lost Voice",
        "description": "**Location:** Can be bought from [Strabami](/?locationId=448488)",
        "latitude": 0.65841780002566,
        "longitude": -0.67694483615708
    },
    {
        "id": 455607,
        "categoryId": 4,
        "title": "Linen & Cotton",
        "description": "**Location:** Sold by [Rubiju](/?locationId=448446)",
        "latitude": 0.81206043251464,
        "longitude": -0.7366482485952
    },
    {
        "id": 456597,
        "categoryId": 4,
        "title": "Clea",
        "description": "**Location:** Rewarded upon completion of all [Endless Tower](/?locationId=448528) challenges",
        "latitude": 0.55065980785349,
        "longitude": -0.72776925912942
    },
    {
        "id": 456598,
        "categoryId": 4,
        "title": "Goblu",
        "description": "**Location:** Sold by [Blabary](/?locationId=448578)",
        "latitude": 0.50303407444476,
        "longitude": -0.69578310166725
    },
    {
        "id": 456599,
        "categoryId": 4,
        "title": "Lune",
        "description": "**Location:** Complete Lune's side quest after reaching Relationship Level 6 with her",
        "latitude": 0.89644729172197,
        "longitude": -0.67252417856724
    },
    {
        "id": 456600,
        "categoryId": 4,
        "title": "Monoco",
        "description": "**Location:** Complete Monoco's side quest after reaching Relationship Level 6 with him",
        "latitude": 0.89653311190406,
        "longitude": -0.67164441401025
    },
    {
        "id": 456601,
        "categoryId": 4,
        "title": "Sciel",
        "description": "**Location:** Obtain Relationship Level 6 with Sciel",
        "latitude": 0.89661893208626,
        "longitude": -0.67087193781444
    },
    {
        "id": 456602,
        "categoryId": 4,
        "title": "Robe de Jour",
        "description": "**Location:** Sold by [Rederi](/?locationId=448463)",
        "latitude": 0.74727744325692,
        "longitude": -0.65148135554881
    },
    {
        "id": 456603,
        "categoryId": 4,
        "title": "Our Drafts Collide",
        "description": "**Location:** Automatically obtained at the end of Act III",
        "latitude": 0.90929369332734,
        "longitude": -0.67103780878631
    },
    {
        "id": 448494,
        "categoryId": 7,
        "title": "Fueling Break",
        "description": "**Location:** On the ground near the ruined crates\n\nCan also be obtained after completing Stage 7, Trial 3 at the [Endless Tower](/?locationId=448528)",
        "latitude": 0.68727946114493,
        "longitude": -0.67172035574967
    },
    {
        "id": 448508,
        "categoryId": 7,
        "title": "Charging Tint",
        "description": "**Location:** In the guarded ruined camp.  Can be obtained without fighting",
        "latitude": 0.64687785939658,
        "longitude": -0.71258228867805
    },
    {
        "id": 448513,
        "categoryId": 7,
        "title": "Breaking Burn",
        "description": "**Location:** Guarded by the [Bourgeon](/?locationId=448512)",
        "latitude": 0.67641418196442,
        "longitude": -0.74972825941387
    },
    {
        "id": 448518,
        "categoryId": 7,
        "title": "Critical Vulnerability",
        "description": "**Location:** In the ruined camp, guarded by the enemies.  Can be obtained without fighting",
        "latitude": 0.66783289386734,
        "longitude": -0.78007862028721
    },
    {
        "id": 448534,
        "categoryId": 7,
        "title": "Accelerating Heal",
        "description": "**Location:** In the ruined camp on the beach",
        "latitude": 0.57437655157386,
        "longitude": -0.6462073423549
    },
    {
        "id": 448545,
        "categoryId": 7,
        "title": "Energising Heal",
        "description": "**Location:** On the ground in the ruined camp guarded by enemies",
        "latitude": 0.54297853569803,
        "longitude": -0.72326718257506
    },
    {
        "id": 448556,
        "categoryId": 7,
        "title": "Healing Parry",
        "description": "**Location:** In the ruined camp on the cliff.  Can be obtained without fighting\n\nCan also be found inside the [Stone Quarry](/?locationId=448478) after helping the Troubadour",
        "latitude": 0.52400974148647,
        "longitude": -0.66891212358368
    },
    {
        "id": 448585,
        "categoryId": 7,
        "title": "Energising Start I",
        "description": "**Location:** In the sand behind the ruined crates, under the arch.  Only accessible after unlocking Esquie",
        "latitude": 0.51829443768592,
        "longitude": -0.68207261922367
    },
    {
        "id": 448591,
        "categoryId": 7,
        "title": "Shared Care",
        "description": "**Location:** In the ruined camp",
        "latitude": 0.51808694630319,
        "longitude": -0.72268201125462
    },
    {
        "id": 448612,
        "categoryId": 7,
        "title": "Dead Energy I",
        "description": "**Location:** Hidden amongst the ruined crates on the beach in the overworld",
        "latitude": 0.45701291181004,
        "longitude": -0.70128681637647
    },
    {
        "id": 448798,
        "categoryId": 7,
        "title": "Marking Shots",
        "description": "**Location:** Found inside [Flying Waters](/?locationId=448438) - on the ground in the alcove guarded by two Luster enemies",
        "latitude": 0.49438265412753,
        "longitude": -0.684356242419
    },
    {
        "id": 448799,
        "categoryId": 7,
        "title": "Dodger",
        "description": "**Location:** Obtained automatically  inside the [Spring Meadows](/?locationId=448436)",
        "latitude": 0.48099360837092,
        "longitude": -0.69394821376866
    },
    {
        "id": 448800,
        "categoryId": 7,
        "title": "Critical Burn",
        "description": "**Location:** Found within the [Spring Meadows](/?locationId=448436).  Can also be purchased from [Anthonypo](/?locationId=454570) in the [Endless Night Sanctuary](/?locationId=452779)",
        "latitude": 0.48191083488872,
        "longitude": -0.69348648190334
    },
    {
        "id": 448802,
        "categoryId": 7,
        "title": "Burning Shots",
        "description": "**Location:** Found within the [Spring Meadows](/?locationId=448436)\n\nCan also be purchased from the [Grandis Merchant](/?locationId=448849) inside [Monoco's Station](/?locationId=448427)\n\nAlso sold by the [Gestral Merchant](/?locationId=455413) inside the [Sacred River](/?locationId=448515)",
        "latitude": 0.48032302313223,
        "longitude": -0.69194152951124
    },
    {
        "id": 448803,
        "categoryId": 7,
        "title": "Dead Energy II",
        "description": "**Location:** Found within the [Spring Meadows](/?locationId=448436)",
        "latitude": 0.48113838597223,
        "longitude": -0.69159820675759
    },
    {
        "id": 448807,
        "categoryId": 7,
        "title": "Empowering Attack",
        "description": "**Location:** Found within the [Spring Meadows](/?locationId=448436) - on the far ledge before exiting the Spring Meadows\n\nAlso sold by the [Gestral Merchant](/?locationId=455413) inside the [Sacred River](/?locationId=448515)",
        "latitude": 0.48083953807594,
        "longitude": -0.69481371089014
    },
    {
        "id": 448809,
        "categoryId": 7,
        "title": "SOS Shell",
        "description": "**Location:** Found within the [Flying Waters - South Entrance](/?locationId=448438)",
        "latitude": 0.49544879243585,
        "longitude": -0.68449169397377
    },
    {
        "id": 448820,
        "categoryId": 7,
        "title": "Burning Mark",
        "description": "**Location:** Found within the [Ancient Sanctuary - South Entrance](/?locationId=448440) - from the Entrance rest point, head straight ahead, then climb down the cliff diagonally to the ledge below",
        "latitude": 0.50198777028967,
        "longitude": -0.68820118904148
    },
    {
        "id": 448822,
        "categoryId": 7,
        "title": "Stun Boost",
        "description": "**Location:** Found within the [Ancient Sanctuary - South Entrance](/?locationId=448440) - after defeating the [Ultimate Sakapatate](/?locationId=448816), head up the hill and find the Pictos at the end of the rocky tunnel that you'll need to crouch to get into.\n\nCan also be purchased from the [Gestral Merchant](/?locationId=455413) in the [Sacred River](/?locationId=448515)",
        "latitude": 0.50314014781134,
        "longitude": -0.68921214983465
    },
    {
        "id": 448836,
        "categoryId": 7,
        "title": "Breaking Counter",
        "description": "**Location:** Found within the [Stone Wave Cliffs - South Entrance](/?locationId=448434) - in the fallen structure to the left of the Hexga guarding the big clearing",
        "latitude": 0.52563585608807,
        "longitude": -0.67518576979552
    },
    {
        "id": 448846,
        "categoryId": 7,
        "title": "Revive Tint Energy",
        "description": "**Location:** Found within the [Forgotten Battlefield - South Entrance](/?locationId=448432) - on a grassy ledge after defeating the [Dualliste](/?locationId=448845)\n\nAlso sold by the [Gestral Merchant](/?locationId=455413) inside the [Sacred River](/?locationId=448515)",
        "latitude": 0.6239647014993,
        "longitude": -0.67390367388828
    },
    {
        "id": 448928,
        "categoryId": 7,
        "title": "Cleansing Tint",
        "description": "**Location:** Found within [Spring Meadows](/?locationId=448436) - drops after defeating [Eveque](/?locationId=448806)",
        "latitude": 0.4807718183795,
        "longitude": -0.69581747979811
    },
    {
        "id": 448929,
        "categoryId": 7,
        "title": "Aegis Revival",
        "description": "**Location:** Found within [Spring Meadows](/?locationId=448436) - clear out the Paint Spike (Paint Break skill required) near the Abandoned Expeditioner Camp rest point and follow the path up to the Pictos.  Can also be purchased from [Grour](/?locationId=455435) inside [Renoir's Drafts](/?locationId=449887)",
        "latitude": 0.47948442354787,
        "longitude": -0.69607497188417
    },
    {
        "id": 448931,
        "categoryId": 7,
        "title": "Exposing Attack",
        "description": "**Location:** Can be bought from [Noco](/?locationId=448811) after fighting him",
        "latitude": 0.49693853556751,
        "longitude": -0.68587996845923
    },
    {
        "id": 449457,
        "categoryId": 7,
        "title": "Staggering Attack",
        "description": "**Location:** Found within the [Flying Waters - South Entrance](/?locationId=448438) - to the right of the Coral Cave rest point, in the alcove",
        "latitude": 0.49454397120623,
        "longitude": -0.68605749481782
    },
    {
        "id": 449458,
        "categoryId": 7,
        "title": "Rewarding Mark",
        "description": "**Location:** Found within the [Flying Waters - South Entrance](/?locationId=448438) - in the alcove near the Coral Cave rest point\n\nAlso sold by the [Gestral Merchant](/?locationId=455413) inside the [Sacred River](/?locationId=448515)",
        "latitude": 0.49628859069387,
        "longitude": -0.68284990905187
    },
    {
        "id": 449463,
        "categoryId": 7,
        "title": "Augmented Counter I",
        "description": "**Location:** Drops from the [Bourgeon](/?locationId=449460) found within [Flying Waters](/?locationId=448438)\n\nCan also drop from the [Bourgeon](/?locationId=448554) found in the overworld, just southeast from the [Stone Wave Cliffs - South Entrance](/?locationId=448434)",
        "latitude": 0.49403666203615,
        "longitude": -0.68036913871774
    },
    {
        "id": 449464,
        "categoryId": 7,
        "title": "Versatile",
        "description": "**Location:** Found within the [Flying Waters - South Entrance](/?locationId=448438) - from the Lumieran Streets rest point - grapple up to the roofs to find the Pictos.  Can also be bought from [Anthonypo](/?locationId=454570) in the [Endless Night Sanctuary](/?locationId=452779)",
        "latitude": 0.49406482418345,
        "longitude": -0.68106651306186
    },
    {
        "id": 449468,
        "categoryId": 7,
        "title": "Energising Break",
        "description": "**Location:** On the ground behind the [Chromatic Troubadour](/?locationId=449466)",
        "latitude": 0.49615458640604,
        "longitude": -0.6867792946903
    },
    {
        "id": 449469,
        "categoryId": 7,
        "title": "Energising Jump",
        "description": "**Location:** Found within the [Ancient Sanctuary - South Entrance](/?locationId=448440) - from the Entrance rest point - head left over the small bridge and then left again over another bridge",
        "latitude": 0.50212455769805,
        "longitude": -0.68371653556886
    },
    {
        "id": 449472,
        "categoryId": 7,
        "title": "Attack Lifesteal",
        "description": "**Location:** Found within the [Ancient Sanctuary - South Entrance](/?locationId=448440)",
        "latitude": 0.50484596674849,
        "longitude": -0.68422040418761
    },
    {
        "id": 449473,
        "categoryId": 7,
        "title": "Energising Start II",
        "description": "**Location:** Found within the [Ancient Sanctuary - South Entrance](/?locationId=448440)",
        "latitude": 0.50476779904426,
        "longitude": -0.68800507844244
    },
    {
        "id": 449475,
        "categoryId": 7,
        "title": "Breaker",
        "description": "**Location:** Drops from defeating the [Ultimate Sakapatate](/?locationId=448816)",
        "latitude": 0.50487461924702,
        "longitude": -0.68921467737295
    },
    {
        "id": 449476,
        "categoryId": 7,
        "title": "Piercing Shot",
        "description": "**Location:** Found within the [Ancient Sanctuary - South Entrance](/?locationId=448440) - in the water in the alcove within the area behind the Paint Spike (requires Paint Break skill)",
        "latitude": 0.50464702698889,
        "longitude": -0.68284167141829
    },
    {
        "id": 449477,
        "categoryId": 7,
        "title": "Critical Moment",
        "description": "**Location:** Sold by [Jujubree](/?locationId=448824)",
        "latitude": 0.51051686200297,
        "longitude": -0.68390429019945
    },
    {
        "id": 449482,
        "categoryId": 7,
        "title": "Healing Mark",
        "description": "**Location:** Sold by [Eesda](/?locationId=449481)",
        "latitude": 0.5107168720248,
        "longitude": -0.68953156471287
    },
    {
        "id": 449485,
        "categoryId": 7,
        "title": "Roulette",
        "description": "**Location:** Found within the [Gestral Village](/?locationId=448439) - speak with the Gestral behind the casino door - first answer \"Yes.\" then answer \"I don't care.\" to obtain the pictos\n\nCan also be obtained as a drop from the Petank near the Eveque inside of the [Flying Manor](/?locationId=452855)",
        "latitude": 0.51267956152653,
        "longitude": -0.68659454584045
    },
    {
        "id": 449487,
        "categoryId": 7,
        "title": "Powerful Shots",
        "description": "**Location:** Found within the [Gestral Village](/?locationId=448439) - in the hut behind the Paint Spike (requires Paint Break skill)",
        "latitude": 0.51206175288273,
        "longitude": -0.68407058715937
    },
    {
        "id": 449491,
        "categoryId": 7,
        "title": "Augmented First Strike",
        "description": "**Location:** Drops from [Francois](/?locationId=448832) upon defeating him in the story\n\nCan also be purchased from [Grour](/?locationId=455435) inside [Renoir's Drafts](/?locationId=449887) after defeating him in combat",
        "latitude": 0.50593621589486,
        "longitude": -0.67077036334098
    },
    {
        "id": 449492,
        "categoryId": 7,
        "title": "Energising Start III",
        "description": "**Location:** Found within [Esquie's Nest](/?locationId=448435) - after convincing Esquie to join the party, head across the chasm and find this Pictos near the end of the path that leads up and out",
        "latitude": 0.50282995154426,
        "longitude": -0.67212000489158
    },
    {
        "id": 449493,
        "categoryId": 7,
        "title": "Confident",
        "description": "**Location:** Found within the [Stone Wave Cliffs - South Entrance](/?locationId=448434) - drops from defeating the Hexga just beyond the Entrance rest point",
        "latitude": 0.52537435170849,
        "longitude": -0.67294478416389
    },
    {
        "id": 449494,
        "categoryId": 7,
        "title": "Energising Pain",
        "description": "**Location:** Found within the [Stone Wave Cliffs - South Entrance](/?locationId=448434) - drops from defeating the Greatsword Cultist enemy",
        "latitude": 0.5248553660616,
        "longitude": -0.67451521754194
    },
    {
        "id": 449701,
        "categoryId": 7,
        "title": "First Strike",
        "description": "**Location:** Found within the [Stone Wave Cliffs - South Entrance](/?locationId=448434) - At the second clearing, make your way up the shorter cliffs on the right. In front of a statue.",
        "latitude": 0.52490766694255,
        "longitude": -0.6778357923026
    },
    {
        "id": 449702,
        "categoryId": 7,
        "title": "SOS Power",
        "description": "**Location:** Found within the [Stone Wave Cliffs - South Entrance](/?locationId=448434) - In the area after the shipwreck",
        "latitude": 0.52550175127914,
        "longitude": -0.67682862281762
    },
    {
        "id": 449721,
        "categoryId": 7,
        "title": "Exhausting Power",
        "description": "**Location:** Found within the [Stone Wave Cliffs Cave](/?locationId=448597) - In the area where the [boss](/?locationId=449719) is",
        "latitude": 0.52707387888755,
        "longitude": -0.63291305464742
    },
    {
        "id": 449723,
        "categoryId": 7,
        "title": "Energising Start IV",
        "description": "**Location:** Found within the [Forgotten Battlefield - South Entrance](/?locationId=448432) - It's inside of the trench reinforced with planks",
        "latitude": 0.61893320752594,
        "longitude": -0.67552260946735
    },
    {
        "id": 449726,
        "categoryId": 7,
        "title": "Sweet Kill",
        "description": "**Location:** Found within the [Forgotten Battlefield - South Entrance](/?locationId=448432) - Follow the path to the left after passing through the big gate. After arriving at the ruins, cross the wooden bridge on the right, follow the path.\n\nCan also be purchased from [Grour](/?locationId=455435) inside [Renoir's Drafts](/?locationId=449887)",
        "latitude": 0.61978692424854,
        "longitude": -0.67742583015504
    },
    {
        "id": 449727,
        "categoryId": 7,
        "title": "Energising Death",
        "description": "**Location:** Found within the [Forgotten Battlefield - South Entrance](/?locationId=448432) - Follow the path to the right after passing through the big gate. After climbing the rocks, you will reach a damaged building. It's at the edge of the stone balcony.\n\nCan also be purchased from the [Grandis Merchant](/?locationId=448849) inside [Monoco's Station](/?locationId=448427)",
        "latitude": 0.61428651534344,
        "longitude": -0.6766703724881
    },
    {
        "id": 449731,
        "categoryId": 7,
        "title": "Empowering Tint",
        "description": "**Location:** Found within the [Forgotten Battlefield](/?locationId=448432) - After passing through the big gate, you will encounter an NPC named Fading Woman. From where this NPC is, go to the right towards the wooden reinforced trenches. Go up with the zipline.\n\nCan also be obtained for completing Stage 8, Trial 3 in the [Endless Tower](/?locationId=448528)",
        "latitude": 0.61579382995977,
        "longitude": -0.67280933260895
    },
    {
        "id": 449747,
        "categoryId": 7,
        "title": "Time Tint",
        "description": "**Location:** Found within the [Old Lumiere](/?locationId=448430).  \n\nCan also be found in the [Endless Night Sanctuary](/?locationId=452779) near [Anthonypo](/?locationId=454570)",
        "latitude": 0.69995046871742,
        "longitude": -0.7165665314597
    },
    {
        "id": 449750,
        "categoryId": 7,
        "title": "Powered Attack",
        "description": "**Location:** Found within the [Visages](/?locationId=448425) - Path of Anger",
        "latitude": 0.78180783692035,
        "longitude": -0.71584349863164
    },
    {
        "id": 449751,
        "categoryId": 7,
        "title": "Double Burn",
        "description": "**Location:** Found within the [Visages](/?locationId=448425) - Path of Anger\n\nAlso sold by the [Gestral Merchant](/?locationId=455413) inside the [Sacred River](/?locationId=448515)",
        "latitude": 0.77996568897674,
        "longitude": -0.71720087548016
    },
    {
        "id": 449757,
        "categoryId": 7,
        "title": "Confident Fighter",
        "description": "**Location:** Found within the [Visages](/?locationId=448425) - Path of Joy",
        "latitude": 0.78188275419969,
        "longitude": -0.72302591860173
    },
    {
        "id": 449762,
        "categoryId": 7,
        "title": "Glass Canon",
        "description": "**Location:** Found within the [Visages](/?locationId=448425) - Path of Sadness, in the arena behind the [Chromatic Ramasseur](/?locationId=449761)\n\nAlso sold by the [Gestral Merchant](/?locationId=455413) inside the [Sacred River](/?locationId=448515)",
        "latitude": 0.78208372244181,
        "longitude": -0.72023355955821
    },
    {
        "id": 449765,
        "categoryId": 7,
        "title": "Augmented Attack",
        "description": "**Location:** Received after beating the optional enemy [Chromatic Lancelier](/?locationId=449766)",
        "latitude": 0.47989194463817,
        "longitude": -0.69501059342607
    },
    {
        "id": 449884,
        "categoryId": 7,
        "title": "Critical Break",
        "description": "**Location:** Inside the Paint Spike",
        "latitude": 0.8183182607752,
        "longitude": -0.76213829175447
    },
    {
        "id": 449893,
        "categoryId": 7,
        "title": "Auto Regen",
        "description": "**Location:** Found within the [Sirene](/?locationId=448426)",
        "latitude": 0.79106847206097,
        "longitude": -0.64549931354546
    },
    {
        "id": 449896,
        "categoryId": 7,
        "title": "Protecting Death",
        "description": "**Location:** Found within the [Sirene](/?locationId=448426)",
        "latitude": 0.79267821059716,
        "longitude": -0.65104726519775
    },
    {
        "id": 449905,
        "categoryId": 7,
        "title": "Healing Fire",
        "description": "**Location:** Found within the [Sirene](/?locationId=448426) - from the Crumbling Path rest point, descend down the rope, grapple across the ledge, and duck under the rocks until you see the Pictos on the ground near a corpse",
        "latitude": 0.79597878680308,
        "longitude": -0.64924471444982
    },
    {
        "id": 450899,
        "categoryId": 7,
        "title": "SOS Rush",
        "description": "**Location:** Found within [Falling Leaves](/?locationId=448523), next to the Expedition 35 journal.",
        "latitude": 0.625030816251,
        "longitude": -0.74116677045927
    },
    {
        "id": 450907,
        "categoryId": 7,
        "title": "Auto Powerful",
        "description": "**Location:** Found within [Floating Cemetery](/?locationId=448522) - If you agree to end Chalier's life, you can obtain this Pictos.",
        "latitude": 0.64071202529325,
        "longitude": -0.75427932940622
    },
    {
        "id": 450916,
        "categoryId": 7,
        "title": "Greater Slow",
        "description": "**Location:** Found within the [Sky Island](/?locationId=448538) - Head to the end of this field and drop down to the lower area, climb up the wall structures ahead.",
        "latitude": 0.63977751765132,
        "longitude": -0.60900463827545
    },
    {
        "id": 452780,
        "categoryId": 7,
        "title": "Empowering Dodge",
        "description": "**Location:** On the ground in the ruined camp",
        "latitude": 0.72970225536747,
        "longitude": -0.53399703383778
    },
    {
        "id": 452783,
        "categoryId": 7,
        "title": "Effective Support",
        "description": "**Location:** Can be found on the ground in a small patch of land northeast of Sirene.",
        "latitude": 0.83174914129036,
        "longitude": -0.5659143963087
    },
    {
        "id": 452801,
        "categoryId": 7,
        "title": "Greater Shell",
        "description": "**Location:** Found within [Sirene](/?locationId=448426)",
        "latitude": 0.7942454471069,
        "longitude": -0.64660716167714
    },
    {
        "id": 452802,
        "categoryId": 7,
        "title": "Effective Heal",
        "description": "**Location:** Found within [Sirene](/?locationId=448426) - Behind the [Chromatic Greatsword Cultist](/?locationId=452803)",
        "latitude": 0.79271401719791,
        "longitude": -0.64697632978189
    },
    {
        "id": 452818,
        "categoryId": 7,
        "title": "Healing Death",
        "description": "**Location:** Found within [Old Lumiere](/?locationId=448431)",
        "latitude": 0.69999084244604,
        "longitude": -0.71895988363337
    },
    {
        "id": 452839,
        "categoryId": 7,
        "title": "Anti-Freeze",
        "description": "**Location:** Found within [Frozen Hearts](/?locationId=448496) - Under the paint cage",
        "latitude": 0.6779489681458,
        "longitude": -0.65086766774994
    },
    {
        "id": 452842,
        "categoryId": 7,
        "title": "Burn Affinity",
        "description": "**Location:** Found within [Frozen Hearts](/?locationId=448496) - On top of the train wreck. Follow the mountain path above, you can go down using the zip line.",
        "latitude": 0.68005554489007,
        "longitude": -0.64930222342304
    },
    {
        "id": 452844,
        "categoryId": 7,
        "title": "Burning Break",
        "description": "**Location:** Found within [Frozen Hearts](/?locationId=448496)",
        "latitude": 0.68023475739761,
        "longitude": -0.65237366361086
    },
    {
        "id": 452848,
        "categoryId": 7,
        "title": "Longer Rush",
        "description": "**Location:** in front of the tents on the mountain\n\n**Requires:** Esquie's flight",
        "latitude": 0.66656582509471,
        "longitude": -0.67091469950998
    },
    {
        "id": 452854,
        "categoryId": 7,
        "title": "Protecting Shots",
        "description": "**Location:** Found within the [Flying Manor](/?locationId=452855) - Head down the stairs after entering the location.  At the platform below, turn around to the right and head back towards the opposite end.  Drop off the ledge in between the 3 pillars.  Descend down the rope to the platform below and find the Pictos on the lower ledge at the end of the path",
        "latitude": 0.64007511202665,
        "longitude": -0.70388124519775
    },
    {
        "id": 452859,
        "categoryId": 7,
        "title": "Shielding Tint",
        "description": "**Location:** In the ruins of an old building, among the boxes",
        "latitude": 0.59771761334353,
        "longitude": -0.66089154477808
    },
    {
        "id": 452875,
        "categoryId": 7,
        "title": "Death Bomb",
        "description": "**Location:** Found within the [Yellow Harvest](/?locationId=448582) - heading away from the Expedition 68 flag you'll enter a wide area - go to the right, then find the Pictos in a corner near a tent",
        "latitude": 0.51878916946897,
        "longitude": -0.69967887756422
    },
    {
        "id": 452879,
        "categoryId": 7,
        "title": "Breaking Slow",
        "description": "**Location:** Under the Paint Spike.\n\n**Requires:** Esquie Flight",
        "latitude": 0.48717716396,
        "longitude": -0.69761976599648
    },
    {
        "id": 452888,
        "categoryId": 7,
        "title": "Energising Shell",
        "description": "**Location:** Under the Paint Spike",
        "latitude": 0.51638743835053,
        "longitude": -0.59472494384096
    },
    {
        "id": 452891,
        "categoryId": 7,
        "title": "Recovery",
        "description": "**Location:** Obtained from completing [Benisseur (Nevron)](/?locationId=457677)'s quest",
        "latitude": 0.4968293370078,
        "longitude": -0.70618583424439
    },
    {
        "id": 453323,
        "categoryId": 7,
        "title": "Teamwork",
        "description": "**Location:** Can be purchased from [Pinabby](/?locationId=452873) after fighting them",
        "latitude": 0.52178478998505,
        "longitude": -0.70028877130812
    },
    {
        "id": 453324,
        "categoryId": 7,
        "title": "Auto Death",
        "description": "**Location:** Can be purchased from the merchant [Pinabby](/?locationId=452873)",
        "latitude": 0.52007947156065,
        "longitude": -0.69706571268554
    },
    {
        "id": 453348,
        "categoryId": 7,
        "title": "Defensive Mode",
        "description": "**Location:** Found within the [Stone Wave Cliffs - North Entrance](/?locationId=448587) - Return in Act II after defeating [Lampmaster](/?locationId=448839): Found on corpse near the exit portal.",
        "latitude": 0.52939347165145,
        "longitude": -0.67628949880589
    },
    {
        "id": 454444,
        "categoryId": 7,
        "title": "Random Defense",
        "description": "**Location:** Found [Inside the Monolith](/?locationId=452890) - Under the paint cage.  Note that one lock is behind a Paint Spike (requires Paint Break skill)",
        "latitude": 0.9052038601267,
        "longitude": -0.67155808210552
    },
    {
        "id": 454448,
        "categoryId": 7,
        "title": "Enfeebling Attack",
        "description": "**Location:** Found [Inside the Monolith](/?locationId=452890) - Next to Melosh",
        "latitude": 0.90399760924647,
        "longitude": -0.66962344847775
    },
    {
        "id": 454449,
        "categoryId": 7,
        "title": "Weakness Gain",
        "description": "**Location:** Found [Inside the Monolith](/?locationId=452890)",
        "latitude": 0.90389377694652,
        "longitude": -0.67069865279191
    },
    {
        "id": 454450,
        "categoryId": 7,
        "title": "Stay Marked",
        "description": "**Location:** Found [Inside the Monolith](/?locationId=452890) - behind the [Chromatic Bourgeon](/?locationId=454427)\n\nCan also be bought from [Fusoka](/?locationId=455416) in the [Flying Manor](/?locationId=452855) after defeating him in a fight",
        "latitude": 0.90379684269945,
        "longitude": -0.67154163999211
    },
    {
        "id": 454580,
        "categoryId": 7,
        "title": "Gradient Break",
        "description": "**Location:** Found within [Endless Night Sanctuary](/?locationId=452779) - in a tiny alcove in the passage between the two paths past the behind the Grandis Engineer",
        "latitude": 0.71485469425173,
        "longitude": -0.52812301203423
    },
    {
        "id": 454667,
        "categoryId": 7,
        "title": "Auto Rush",
        "description": "**Location:** Found within [Old Lumiere - South Entrance](/?locationId=448430) - After soloing the second monster look to the left",
        "latitude": 0.70085080193982,
        "longitude": -0.71222001335371
    },
    {
        "id": 454676,
        "categoryId": 7,
        "title": "Sniper",
        "description": "**Location:** Found within [The Reacher](/?locationId=448452) - drops from a group of Echassier enemies",
        "latitude": 0.79490480732042,
        "longitude": -0.78162118792557
    },
    {
        "id": 454677,
        "categoryId": 7,
        "title": "Draining Cleanse",
        "description": "**Location:** Found within [The Reacher](/?locationId=448452) - down the rope and to the right after grappling across the first gap in the location, defended by 2 Orphelin enemies.",
        "latitude": 0.79616666501788,
        "longitude": -0.78024789690988
    },
    {
        "id": 454681,
        "categoryId": 7,
        "title": "Auto Shell",
        "description": "**Location:** Found within the [Stone Wave Cliffs - South Entrance](/?locationId=448434) - Reward for completing [Hexga (Nevron)](/?locationId=457676)'s quest",
        "latitude": 0.5275817165361,
        "longitude": -0.67217499017661
    },
    {
        "id": 454682,
        "categoryId": 7,
        "title": "Breaking Shots",
        "description": "**Location:** Found within the [Stone Wave Cliffs - South Entrance](/?locationId=448434) - jump across the pillars inside the large dark underground area",
        "latitude": 0.52489827960507,
        "longitude": -0.67369446158366
    },
    {
        "id": 454683,
        "categoryId": 7,
        "title": "Enfeebling Mark",
        "description": "**Location:** Found within the [Stone Wave Cliffs](/?locationId=448434), near the Flooded Buildings rest point -  On a stone platform near the giant Hexga, and next to a slain Hexga with protruding sword",
        "latitude": 0.52440611488497,
        "longitude": -0.67520856857226
    },
    {
        "id": 454687,
        "categoryId": 7,
        "title": "Perilous Parry",
        "description": "**Location:** Found within the [Stone Wave Cliffs - South Entrance](/?locationId=448434) - drops from defeating the [Gold Chevalier](/?locationId=454686)",
        "latitude": 0.52904077621066,
        "longitude": -0.6735482811921
    },
    {
        "id": 454689,
        "categoryId": 7,
        "title": "Shield Affinity",
        "description": "**Location:** Found within [Sirene](/?locationId=448426) - inside the Paint Cage just beyond the first rest point\n\nAlso sold by the [Gestral Merchant](/?locationId=455413) inside the [Sacred River](/?locationId=448515)",
        "latitude": 0.79274160080685,
        "longitude": -0.65365165472147
    },
    {
        "id": 454690,
        "categoryId": 7,
        "title": "Powerful On Shell",
        "description": "**Location:** Found inside [Sirene](/?locationId=448426) - drops from the enemy at the bottom of the chamber with many branching bridges, who also guards the [Auto Regen](/?locationId=449893) Pictos",
        "latitude": 0.79094037597834,
        "longitude": -0.64824707441588
    },
    {
        "id": 454703,
        "categoryId": 7,
        "title": "Base Shield",
        "description": "Complete the challenge in The Chosen Path",
        "latitude": 0.70537950913918,
        "longitude": -0.66720902015314
    },
    {
        "id": 454859,
        "categoryId": 7,
        "title": "In Medias Res",
        "description": "**Location:** Found within the [Dark Shores](/?locationId=448613) - Guarded by the enemies at the end of the beach. It can be obtained without fighting.",
        "latitude": 0.46010886980223,
        "longitude": -0.70172508454093
    },
    {
        "id": 455106,
        "categoryId": 7,
        "title": "At Death's Door",
        "description": "**Location:** Drops from the [Lampmaster](/?locationId=448839)",
        "latitude": 0.52847887733905,
        "longitude": -0.67593245631454
    },
    {
        "id": 455107,
        "categoryId": 7,
        "title": "Tainted",
        "description": "**Location:** Drops from the [Chromatic Gault](/?locationId=454685).\n\nCan also be purchased from [Eragol](/?locationId=455415) in [The Reacher](/?locationId=448452)",
        "latitude": 0.52870551436722,
        "longitude": -0.67422419786368
    },
    {
        "id": 455108,
        "categoryId": 7,
        "title": "Rejuvenating Revive",
        "description": "**Location:** Inside the [Chromatic Gault](/?locationId=454685) arena accessed by destroying the Paint Spike.  Near a corpse behind the hut",
        "latitude": 0.52862907466636,
        "longitude": -0.67269802093568
    },
    {
        "id": 455110,
        "categoryId": 7,
        "title": "Longer Shell",
        "description": "**Location:** Found within the [Forgotten Battlefield - South Entrance](/?locationId=448432) - drops from defeating a common enemy",
        "latitude": 0.61318687273537,
        "longitude": -0.67699894308967
    },
    {
        "id": 455112,
        "categoryId": 7,
        "title": "Energising Parry",
        "description": "**Location:** Drops from defeating the [Chromatic Luster](/?locationId=449730)\n\nAlso sold by the [Gestral Merchant](/?locationId=455413) inside the [Sacred River](/?locationId=448515)",
        "latitude": 0.61989420632163,
        "longitude": -0.67466695070095
    },
    {
        "id": 455113,
        "categoryId": 7,
        "title": "Inverted Affinity",
        "description": "**Location:** Sold by the merchant [Kasumi](/?locationId=448844)",
        "latitude": 0.62281276091112,
        "longitude": -0.67449510097487
    },
    {
        "id": 455116,
        "categoryId": 7,
        "title": "Combo Attack I",
        "description": "**Location:** Drops from the story boss [Dualliste](/?locationId=448845)",
        "latitude": 0.62231524051231,
        "longitude": -0.67228764295677
    },
    {
        "id": 455120,
        "categoryId": 7,
        "title": "Survivor",
        "description": "**Location:** Sold by the [Grandis Merchant](/?locationId=448849)",
        "latitude": 0.66623519348785,
        "longitude": -0.69997311131556
    },
    {
        "id": 455121,
        "categoryId": 7,
        "title": "Greater Rush",
        "description": "**Location:** Sold by the [Grandis Merchant](/?locationId=448849)",
        "latitude": 0.66512055275304,
        "longitude": -0.7004915838601
    },
    {
        "id": 455126,
        "categoryId": 7,
        "title": "Longer Powerful",
        "description": "**Location:** Sold by [Mandelgo](/?locationId=448851)",
        "latitude": 0.69864314955559,
        "longitude": -0.72243019938583
    },
    {
        "id": 455128,
        "categoryId": 7,
        "title": "Healing Counter",
        "description": "**Location:** Sold by [Mandelgo](/?locationId=448851)",
        "latitude": 0.69703176881328,
        "longitude": -0.72302942458123
    },
    {
        "id": 455133,
        "categoryId": 7,
        "title": "Revive Paradox",
        "description": "**Location:** Drops from defeating the [Chromatic Danseuse](/?locationId=452817)",
        "latitude": 0.70786577308921,
        "longitude": -0.71886866058634
    },
    {
        "id": 455135,
        "categoryId": 7,
        "title": "Healing Share",
        "description": "**Location:** Sold by [Blooraga](/?locationId=449749)",
        "latitude": 0.77822497095252,
        "longitude": -0.71660528538359
    },
    {
        "id": 455138,
        "categoryId": 7,
        "title": "Augmented Counter II",
        "description": "**Location:** Drops from defeating the [Chromatic Ramasseur](/?locationId=449761)",
        "latitude": 0.78604790244165,
        "longitude": -0.72074957865408
    },
    {
        "id": 455141,
        "categoryId": 7,
        "title": "Immaculate",
        "description": "**Location:** Drops from defeating the [Mask Keeper](/?locationId=449874)",
        "latitude": 0.78597867150428,
        "longitude": -0.71925218985652
    },
    {
        "id": 455146,
        "categoryId": 7,
        "title": "Anti-Charm",
        "description": "**Location:** Drops from defeating [Tisseur](/?locationId=449900)",
        "latitude": 0.79700812175844,
        "longitude": -0.65003711804727
    },
    {
        "id": 455148,
        "categoryId": 7,
        "title": "Double Mark",
        "description": "**Location:** Sold by [Klaudiso](/?locationId=449904)",
        "latitude": 0.7972456444416,
        "longitude": -0.64840230649253
    },
    {
        "id": 455149,
        "categoryId": 7,
        "title": "Energising Attack II",
        "description": "**Location:** Sold by [Klaudiso](/?locationId=449904)",
        "latitude": 0.79733146682018,
        "longitude": -0.64756545727971
    },
    {
        "id": 455150,
        "categoryId": 7,
        "title": "Greater Powerful",
        "description": "**Location:** Sold by [Klaudiso](/?locationId=449904)",
        "latitude": 0.79738998427375,
        "longitude": -0.64668604234839
    },
    {
        "id": 455152,
        "categoryId": 7,
        "title": "Energising Turn",
        "description": "**Location:** Drops from defeating [Sirène](/?locationId=452893)\n\nCan also be purchased from [Grour](/?locationId=455435) inside [Renoir's Drafts](/?locationId=449887)\n\nAlso sold by the [Gestral Merchant](/?locationId=455413) inside the [Sacred River](/?locationId=448515)",
        "latitude": 0.79714111856779,
        "longitude": -0.65349435463796
    },
    {
        "id": 455282,
        "categoryId": 7,
        "title": "Critical Stun",
        "description": "**Location:** Sold by the [Gestral Merchant](/?locationId=455413) (fight required)",
        "latitude": 0.69350123772654,
        "longitude": -0.6910955205594
    },
    {
        "id": 455283,
        "categoryId": 7,
        "title": "Solidifying",
        "description": "**Location:** Sold by the [Gestral Merchant](/?locationId=455413) (fight required)\n\nCan also be obtained as a drop for defeating the [Giant Sapling](/?locationId=449710)",
        "latitude": 0.69365487930258,
        "longitude": -0.68925168655537
    },
    {
        "id": 455367,
        "categoryId": 7,
        "title": "Solo Fighter",
        "description": "**Location:** Obtained after defeating all opponents in the  [Hidden Gestral Arena](/?locationId=448580).\n\nCan also be purchased from [Grour](/?locationId=455435) inside [Renoir's Drafts](/?locationId=449887)",
        "latitude": 0.50688529413704,
        "longitude": -0.69477394223264
    },
    {
        "id": 455368,
        "categoryId": 7,
        "title": "Protecting Last Stand",
        "description": "**Location:** Obtained after defeating  Dominique Giant Feet in the  [Hidden Gestral Arena](/?locationId=448580).",
        "latitude": 0.50489651367718,
        "longitude": -0.69518834352507
    },
    {
        "id": 455369,
        "categoryId": 7,
        "title": "Last Stand Critical",
        "description": "**Location:** Obtained after defeating  Mathieu the Colossus in the  [Hidden Gestral Arena](/?locationId=448580).",
        "latitude": 0.50507085049232,
        "longitude": -0.69611102342617
    },
    {
        "id": 455370,
        "categoryId": 7,
        "title": "Accelerating Last Stand",
        "description": "**Location:** Obtained after defeating Bertrand Big Hands in the  [Hidden Gestral Arena](/?locationId=448580).",
        "latitude": 0.50609809655009,
        "longitude": -0.69644227624002
    },
    {
        "id": 455372,
        "categoryId": 7,
        "title": "Augmented Aim",
        "description": "**Location:** Found within the [Flying Waters - South Entrance](/?locationId=448438) - In the room with a broken boat with enemy on top of it that jumps down, there are some rock pillars to the right which you can climb. The Augmented Aim Pictos is on the top.\n\nCan also be obtained from the [Gestral Merchant](/?locationId=448824) in the [Gestral Village](/?locationId=448439) in exchange for the [Weird Pictos](/?locationId=448825) if you picked it up in [Lumiere](/?locationId=448441).  If you already have the Pictos from Flying Water, then the merchant will upgrade it instead.",
        "latitude": 0.49725653347575,
        "longitude": -0.68481624126389
    },
    {
        "id": 455396,
        "categoryId": 7,
        "title": "Anti-Burn",
        "description": "**Location:** Drops from defeating the [Gargant](/?locationId=452833)",
        "latitude": 0.67500970957312,
        "longitude": -0.64862045116638
    },
    {
        "id": 455412,
        "categoryId": 7,
        "title": "Energising Attack I",
        "description": "**Location:** Drops from defeating [Glaise](/?locationId=452869)",
        "latitude": 0.52312452416361,
        "longitude": -0.69615350733685
    },
    {
        "id": 455434,
        "categoryId": 7,
        "title": "Full Strength",
        "description": "**Location:** Sold by [Cribappa](/?locationId=455431)",
        "latitude": 0.42972069481218,
        "longitude": -0.65748069769316
    },
    {
        "id": 455864,
        "categoryId": 7,
        "title": "First Offensive",
        "description": "**Location:** Reward for defeating the [Chromatic Abbest](/?locationId=449699)",
        "latitude": 0.49188829213222,
        "longitude": -0.69587633013771
    },
    {
        "id": 455865,
        "categoryId": 7,
        "title": "Charging Attack",
        "description": "**Location:** Found within [The Reacher](/?locationId=448452) - Instead of taking the second balloon climb the wall to the left and follow that path, crouch under some rocks just before reaching the dead end",
        "latitude": 0.79556724913502,
        "longitude": -0.7809452712537
    },
    {
        "id": 455867,
        "categoryId": 7,
        "title": "Healing Tint Energy",
        "description": "**Location:** Found within [Stone Wave Cliffs](/?locationId=448434) - Near the Flooded Buildings rest point, around the broken buildings behind a pack of enemies.",
        "latitude": 0.52602610106663,
        "longitude": -0.67473381757651
    },
    {
        "id": 455868,
        "categoryId": 7,
        "title": "Powerful Revive",
        "description": "Obtained after defeating [Chromatic Bruler](/?locationId=448606)",
        "latitude": 0.51654488463174,
        "longitude": -0.68940684199208
    },
    {
        "id": 455869,
        "categoryId": 7,
        "title": "Energising Revive",
        "description": "Obtained after defeating [Chromatic Hexga](/?locationId=449719)",
        "latitude": 0.52712978346095,
        "longitude": -0.6365659832951
    },
    {
        "id": 456340,
        "categoryId": 7,
        "title": "Accelerating Shots",
        "description": "**Location:** Sold by [Fusoka](/?locationId=455416) after defeating him in fight",
        "latitude": 0.64312120810041,
        "longitude": -0.70705253256597
    },
    {
        "id": 456341,
        "categoryId": 7,
        "title": "Empowering Parry",
        "description": "**Location:** Sold by [Fusoka](/?locationId=455416) after defeating him in a fight\n\nCan also be found [Inside of Monolith](/?locationId=452890) in a Paint Cage",
        "latitude": 0.64217712994595,
        "longitude": -0.70735293998786
    },
    {
        "id": 456342,
        "categoryId": 7,
        "title": "Energising Stun",
        "description": "**Location:** Found within the [Flying Manor](/?locationId=452855) - in a Paint Cage on the path to the Eveques",
        "latitude": 0.64116600057062,
        "longitude": -0.7042139768599
    },
    {
        "id": 456343,
        "categoryId": 7,
        "title": "Painter",
        "description": "**Location:** Found inside the [Flying Manor](/?locationId=452855) - in the room with the Eveques",
        "latitude": 0.6400609995289,
        "longitude": -0.70467263460145
    },
    {
        "id": 456345,
        "categoryId": 7,
        "title": "Break Specialist",
        "description": "**Location:** Sold by [Fusoka](/?locationId=455416) after defeating him in fight",
        "latitude": 0.64406528610942,
        "longitude": -0.70655666707611
    },
    {
        "id": 456346,
        "categoryId": 7,
        "title": "Longer Burn",
        "description": "**Location:** Sold by [Fusoka](/?locationId=455416) after defeating him in fight.  \n\nCan also be obtained as a drop from defeating the [Chromatic Aberration](/?locationId=452878)",
        "latitude": 0.64363615976259,
        "longitude": -0.70591293691291
    },
    {
        "id": 456347,
        "categoryId": 7,
        "title": "Slowing Break",
        "description": "**Location:** Sold by [Fusoka](/?locationId=455416) after defeating him in fight",
        "latitude": 0.64480466130374,
        "longitude": -0.70580738396572
    },
    {
        "id": 456348,
        "categoryId": 7,
        "title": "Accelerating Tint",
        "description": "**Location:** Sold by [Anthonypo](/?locationId=454570)",
        "latitude": 0.70942000720633,
        "longitude": -0.53601108405664
    },
    {
        "id": 456349,
        "categoryId": 7,
        "title": "Charging Mark",
        "description": "**Location:** Sold by [Anthonypo](/?locationId=454570)",
        "latitude": 0.70949864257445,
        "longitude": -0.53442321638752
    },
    {
        "id": 456350,
        "categoryId": 7,
        "title": "Marking Break",
        "description": "**Location:** Sold by [Anthonypo](/?locationId=454570) after defeating him in combat",
        "latitude": 0.70964883475948,
        "longitude": -0.53300701003232
    },
    {
        "id": 456351,
        "categoryId": 7,
        "title": "Powerful Heal",
        "description": "**Location:** Sold by [Anthonypo](/?locationId=454570)",
        "latitude": 0.70959452660658,
        "longitude": -0.53163499070715
    },
    {
        "id": 456352,
        "categoryId": 7,
        "title": "Powerful Shield",
        "description": "**Location:** Sold by [Anthonypo](/?locationId=454570)",
        "latitude": 0.70975414805591,
        "longitude": -0.53036513259434
    },
    {
        "id": 456353,
        "categoryId": 7,
        "title": "Protecting Attack",
        "description": "**Location:** Sold by [Anthonypo](/?locationId=454570)",
        "latitude": 0.70803766567514,
        "longitude": -0.5351716511492
    },
    {
        "id": 456354,
        "categoryId": 7,
        "title": "Shell On Rush",
        "description": "**Location:** Sold by [Anthonypo](/?locationId=454570) after defeating him in combat",
        "latitude": 0.70814744548532,
        "longitude": -0.53360506348145
    },
    {
        "id": 456356,
        "categoryId": 7,
        "title": "Anti-Blight",
        "description": "**Location:** Drops from defeating the [Chromatic Portier](/?locationId=453359).  Can also be purchased from [Eragol](/?locationId=455415) in [The Reacher](/?locationId=448452)",
        "latitude": 0.47360846509451,
        "longitude": -0.61594414668437
    },
    {
        "id": 456357,
        "categoryId": 7,
        "title": "Anti-Stun",
        "description": "**Location:** Drops from defeating the [Chromatic Petank](/?locationId=453360)",
        "latitude": 0.55796029300683,
        "longitude": -0.60236855997121
    },
    {
        "id": 456360,
        "categoryId": 7,
        "title": "Augmented Counter III",
        "description": "**Location:** Drops from defeating the [Chromatic Echassier](/?locationId=456359)",
        "latitude": 0.42637973644101,
        "longitude": -0.65662077634471
    },
    {
        "id": 456361,
        "categoryId": 7,
        "title": "Beneficial Contamination",
        "description": "**Location:** Sold by [Persik](/?locationId=450900)",
        "latitude": 0.62465935239227,
        "longitude": -0.74548512697166
    },
    {
        "id": 456362,
        "categoryId": 7,
        "title": "Breaking Attack",
        "description": "**Location:** Drops from defeating [Clair Obscur](/?locationId=454424)",
        "latitude": 0.90889411725377,
        "longitude": -0.67014858126544
    },
    {
        "id": 456363,
        "categoryId": 7,
        "title": "Breaking Death",
        "description": "**Location:** Drops from defeating the [Thunder Eveque](/?locationId=453340)",
        "latitude": 0.52951101371907,
        "longitude": -0.62893951376859
    },
    {
        "id": 456365,
        "categoryId": 7,
        "title": "Burning Death",
        "description": "**Location:** Drops from the [Gargant](/?locationId=456364) found in the [Flying Manor](/?locationId=452855)\n\nCan also be obtained as a drop from a common enemy inside the [Frozen Hearts](/?locationId=448496) location",
        "latitude": 0.64063723637074,
        "longitude": -0.70168511881974
    },
    {
        "id": 456528,
        "categoryId": 7,
        "title": "Charging Alteration",
        "description": "**Location:** Found within the [Flying Manor](/?locationId=452855) - in the arena with the [Gargant](/?locationId=456364), grapple up to the floating platform",
        "latitude": 0.64345947278296,
        "longitude": -0.70387389256993
    },
    {
        "id": 456529,
        "categoryId": 7,
        "title": "Charging Burn",
        "description": "**Location:** Found within [Renoir's Drafts](/?locationId=449887) - on the ruined bridge near [Grour](/?locationId=455435)",
        "latitude": 0.76763379478955,
        "longitude": -0.69645649928285
    },
    {
        "id": 456530,
        "categoryId": 7,
        "title": "Charging Critical",
        "description": "**Location:** Found within [Renoir's Drafts](/?locationId=449887) - up the path behind [Grour](/?locationId=455435) and across the platforms.\n\nCan also be obtained from the [Endless Tower](/?locationId=448528) after defeating the Chromatic Aberration in Stage 5, Trial 3",
        "latitude": 0.76764000565977,
        "longitude": -0.69448560476343
    },
    {
        "id": 456531,
        "categoryId": 7,
        "title": "Charging Weakness",
        "description": "**Location:** Sold by [Eragol](/?locationId=455415)",
        "latitude": 0.79434025662246,
        "longitude": -0.78077897429142
    },
    {
        "id": 456532,
        "categoryId": 7,
        "title": "Exposing Break",
        "description": "**Location:** Sold by [Eragol](/?locationId=455415)",
        "latitude": 0.7950053804792,
        "longitude": -0.78004941343897
    },
    {
        "id": 456533,
        "categoryId": 7,
        "title": "Healing Boon",
        "description": "**Location:** Found within [The Reacher](/?locationId=448452) - ride the floating platform by [Eragol](/?locationId=455415), then grapple across to the far side of the tower and descend the rope there",
        "latitude": 0.79429734540057,
        "longitude": -0.78240975737569
    },
    {
        "id": 456534,
        "categoryId": 7,
        "title": "Protecting Heal",
        "description": "**Location:** Sold by [Eragol](/?locationId=455415)\n\nAlso rewarded from completing [Portier (Nevron)](/?locationId=457679)'s quest",
        "latitude": 0.79562812227195,
        "longitude": -0.77934322142272
    },
    {
        "id": 456535,
        "categoryId": 7,
        "title": "Charging Counter",
        "description": "**Location:** Found within [The Reacher](/?locationId=448452) - Instead of taking the second balloon, climb the wall to the left and follow that path to a dead end",
        "latitude": 0.79376497803879,
        "longitude": -0.78312322497337
    },
    {
        "id": 456536,
        "categoryId": 7,
        "title": "Protecting Tint",
        "description": "**Location:** Found within [The Reacher](/?locationId=448452) - tucked away immediately to the right as you step away from the floating platform in, as you arrive in the foggy/misty area.",
        "latitude": 0.79359406346096,
        "longitude": -0.7795478542578
    },
    {
        "id": 456537,
        "categoryId": 7,
        "title": "Pro Retreat",
        "description": "**Location:** Obtained from Sastro in the Camp after finding all 9 Lost Gestrals",
        "latitude": 0.71415572529348,
        "longitude": -0.54060064446125
    },
    {
        "id": 456538,
        "categoryId": 7,
        "title": "Combo Attack III",
        "description": "**Location:** Found within the [Dark Gestral Arena](/?locationId=452866) - rewarded for defeating the Chromatic Robust Sakapatate in the arena",
        "latitude": 0.51218154034406,
        "longitude": -0.70144401095979
    },
    {
        "id": 456539,
        "categoryId": 7,
        "title": "Gradient Breaker",
        "description": "**Location:** Can be purchased from [Fusoka](/?locationId=455416) after defeating him in a fight inside the [Flying Manor](/?locationId=452855)",
        "latitude": 0.64482698532697,
        "longitude": -0.70496097207243
    },
    {
        "id": 456540,
        "categoryId": 7,
        "title": "Quick Break",
        "description": "**Location:** Drops from defeating the [Chromatic Cruler](/?locationId=454573)",
        "latitude": 0.71720021995262,
        "longitude": -0.52710671829647
    },
    {
        "id": 456541,
        "categoryId": 7,
        "title": "Greater Defenceless",
        "description": "**Location:** Sold by [Melosh](/?locationId=454441)",
        "latitude": 0.9028652650025,
        "longitude": -0.66990315914015
    },
    {
        "id": 456544,
        "categoryId": 7,
        "title": "Combo Attack II",
        "description": "**Location:** Drops from defeating the [Chromatic Clair Obscur](/?locationId=456543)",
        "latitude": 0.90995345636138,
        "longitude": -0.66647529602025
    },
    {
        "id": 456545,
        "categoryId": 7,
        "title": "Critical Weakness",
        "description": "**Location:** Found within the [Endless Tower](/?locationId=448528) - rewarded for defeating the Gargant in Stage 6, Trial 3",
        "latitude": 0.54839205875955,
        "longitude": -0.72836458682727
    },